[
    {
        "nombre": "Recicla-Todo CDMX",
        "lat": 19.4326,
        "lon": -99.1332,
        "horario": "L-V 9:00-18:00",
        "materiales": ["plástico", "vidrio", "papel", "cartón", "latas"]
    },
    {
        "nombre": "Eco-Punto Reforma",
        "lat": 19.4269,
        "lon": -99.1623,
        "horario": "L-S 8:00-20:00",
        "materiales": ["plástico", "electrónicos", "baterías"]
    },
    {
        "nombre": "Verde Norte",
        "lat": 19.4939,
        "lon": -99.1444,
        "horario": "M-D 10:00-16:00",
        "materiales": ["vidrio", "orgánico", "aceite de cocina"]
    },
    {
        "nombre": "Sur Sustentable",
        "lat": 19.3453,
        "lon": -99.1621,
        "horario": "L-V 9:00-17:00",
        "materiales": ["papel", "cartón", "plástico", "latas"]
    },
    {
        "nombre": "Mundo Reciclado Naucalpan",
        "lat": 19.4750,
        "lon": -99.2340,
        "horario": "L-S 10:00-17:00",
        "materiales": ["metal", "llantas", "cartón"]
    },
    {
        "nombre": "Centro de Acopio Tlalpan",
        "lat": 19.2879,
        "lon": -99.1651,
        "horario": "Solo Sábados 9:00-14:00",
        "materiales": ["vidrio", "plástico", "baterías", "papel"]
    },
    {
        "nombre": "Eco-Vida Neza",
        "lat": 19.4057,
        "lon": -99.0189,
        "horario": "L-V 8:00-16:00",
        "materiales": ["plástico", "latas", "cartón"]
    },
    {
        "nombre": "Reciclaje Santa Fe",
        "lat": 19.3639,
        "lon": -99.2731,
        "horario": "L-D 24 horas",
        "materiales": ["electrónicos", "metal", "vidrio"]
    },
    {
        "nombre": "Planeta Verde Iztapalapa",
        "lat": 19.3551,
        "lon": -99.0622,
        "horario": "L-S 9:00-18:00",
        "materiales": ["orgánico", "papel", "plástico"]
    },
    {
        "nombre": "Soluciones Ecológicas Coyoacán",
        "lat": 19.3497,
        "lon": -99.1481,
        "horario": "M-V 11:00-19:00",
        "materiales": ["aceite de cocina", "electrónicos", "cartón", "vidrio"]
    }
]